{"business_id": "tnhfDv5Il8EaGSXZGiuQGg","name": "Garaje","neighborhood": "SoMa","address": "475 3rd St","city": "San Francisco","state": "CA", "postal code": "94107", "latitude": 37.7817529521,"longitude": -122.39612197,"stars": 4.5,"categories": [{ "Mexican" : {"val" : {"a":"payal"}},"Gastropubs" : 4}],"x" : [1,2,3] }
{"business_id": "tnhfDv5Il8EaGSXZGiuQGg","name": "Garaje","neighborhood": "SoMa","address": "475 3rd St","city": "San Francisco","state": "CA", "postal code": "94107", "latitude": 37.7817529521,"longitude": -122.39612197,"stars": 4.5,"categories": [{ "Mexican" : {"val" : {"a":"payal"}}, "Burgers":2,"Gastropubs":3}],"x" : [1,2,3] }
{"business_id": "tnhfDv5Il8EaGSXZGiuQGg","name": "Garaje","neighborhood": "SoMa","address": "475 3rd St","city": "San Francisco","state": "CA", "postal code": "94107", "latitude": 37.7817529521,"longitude": -122.39612197,"stars": 4.5,"categories": [{ "Mexican" : {"val" : {"a":"payal"}}, "Burgers":2,"Gastropubs":3}],"x" : [1,2,3] }
{"business_id": "tnhfDv5Il8EaGSXZGiuQGg","name": "Garaje","neighborhood": "SoMa","address": "475 3rd St","city": "San Francisco","state": "IN", "postal code": "94107", "latitude": 37.7817529521,"longitude": -122.39612197,"stars": 4.5,"categories": [{ "Mexican" : {"val" : {"a":"payal"}}, "Burgers":2,"Gastropubs":3}],"x" : [1,2,3] }
{"business_id": "tnhfDv5Il8EaGSXZGiuQGg","name": "Garaje","neighborhood": "SoMa","address": "475 3rd St","city": "San Francisco","state": "CH", "postal code": "94107", "latitude": 37.7817529521,"longitude": -122.39612197,"stars": 4.5,"categories": [{ "Mexican" : {"val" : {"a":"payal"}}, "Burgers":2,"Gastropubs":3}],"x" : [1,2,3] }
{"business_id": "tnhfDv5Il8EaGSXZGiuQGg","name": "Garaje","neighborhood": "SoMa","address": "475 3rd St","city": "San Francisco","state": "US", "postal code": "94107", "latitude": 37.7817529521,"longitude": -122.39612197,"stars": 4.5,"categories": [{ "Mexican" : {"val" : {"a":"payal"}}, "Burgers":2,"Gastropubs":3}],"x" : [1,2,3] }
{"business_id": "tnhfDv5Il8EaGSXZGiuQGg","name": "Garaje","neighborhood": "SoMa","address": "475 3rd St","city": "San Francisco","state": "CA", "postal code": "94107", "latitude": 37.7817529521,"longitude": -122.39612197,"stars": 4.5,"categories": [{ "Mexican" : {"val" : {"a":"payal"}},"Gastropubs":3}],"x" : [1,2,3] }
{"business_id": "tnhfDv5Il8EaGSXZGiuQGg","name": "Garaje","neighborhood": "SoMa","address": "475 3rd St","city": "San Francisco","state": "CA", "postal code": "94107", "latitude": 37.7817529521,"longitude": -122.39612197,"stars": 4.5,"categories": [{ "Mexican" : {"val" : {"a":"payal"}}, "Burgers" : 2,"Gastropubs":3}],"x" : [1,2,3], "z" : [2,3] }
{"business_id": "tnhfDv5Il8EaGSXZGiuQGg","name": "Garaje","neighborhood": "SoMa","address": "475 3rd St","city": "San Francisco","state": "CA", "postal code": "94107", "latitude": 37.7817529521,"longitude": -122.39612197,"stars": 4.5,"categories": [{ "Mexican" : {"val" : null},"Gastropubs":3}],"x" : [1,2,3] }
{"business_id": "tnhfDv5Il8EaGSXZGiuQGg","name": "Garaje","neighborhood": "SoMa","address": "475 3rd St","city": "San Francisco","state": "CA", "postal code": "94107", "latitude": 37.7817529521,"longitude": null,"categories": [{ "Mexican" : {"val" : {"a":null}},"Gastropubs":null}],"x" : [1,2,3], "y" : [1,2] }
